[
  {
    "city": "San José", 
    "lat": "9.9325", 
    "lng": "-84.0800", 
    "country": "Costa Rica", 
    "iso2": "CR", 
    "admin_name": "San José", 
    "capital": "primary", 
    "population": "1543000", 
    "population_proper": "288054"
  }, 
  {
    "city": "San Marcos", 
    "lat": "10.6204", 
    "lng": "-84.5120", 
    "country": "Costa Rica", 
    "iso2": "CR", 
    "admin_name": "Alajuela", 
    "capital": "", 
    "population": "163745", 
    "population_proper": "163745"
  }, 
  {
    "city": "San Ramón", 
    "lat": "10.2182", 
    "lng": "-84.5992", 
    "country": "Costa Rica", 
    "iso2": "CR", 
    "admin_name": "Alajuela", 
    "capital": "", 
    "population": "80566", 
    "population_proper": "80566"
  }, 
  {
    "city": "Puerto Limón", 
    "lat": "10.0022", 
    "lng": "-83.0840", 
    "country": "Costa Rica", 
    "iso2": "CR", 
    "admin_name": "Limón", 
    "capital": "admin", 
    "population": "60710", 
    "population_proper": "60710"
  }, 
  {
    "city": "Sarapiquí", 
    "lat": "10.4853", 
    "lng": "-83.9362", 
    "country": "Costa Rica", 
    "iso2": "CR", 
    "admin_name": "Heredia", 
    "capital": "", 
    "population": "57147", 
    "population_proper": "57147"
  }, 
  {
    "city": "Mora", 
    "lat": "10.0088", 
    "lng": "-84.0216", 
    "country": "Costa Rica", 
    "iso2": "CR", 
    "admin_name": "Heredia", 
    "capital": "", 
    "population": "56919", 
    "population_proper": "56919"
  }, 
  {
    "city": "Santa Cruz", 
    "lat": "10.2358", 
    "lng": "-85.6408", 
    "country": "Costa Rica", 
    "iso2": "CR", 
    "admin_name": "Guanacaste", 
    "capital": "", 
    "population": "55104", 
    "population_proper": "55104"
  }, 
  {
    "city": "Liberia", 
    "lat": "10.6333", 
    "lng": "-85.4333", 
    "country": "Costa Rica", 
    "iso2": "CR", 
    "admin_name": "Guanacaste", 
    "capital": "admin", 
    "population": "53382", 
    "population_proper": "53382"
  }, 
  {
    "city": "Nicoya", 
    "lat": "10.1024", 
    "lng": "-85.4431", 
    "country": "Costa Rica", 
    "iso2": "CR", 
    "admin_name": "Guanacaste", 
    "capital": "", 
    "population": "50825", 
    "population_proper": "50825"
  }, 
  {
    "city": "Alajuela", 
    "lat": "10.1640", 
    "lng": "-84.2645", 
    "country": "Costa Rica", 
    "iso2": "CR", 
    "admin_name": "Alajuela", 
    "capital": "admin", 
    "population": "48326", 
    "population_proper": "48326"
  }, 
  {
    "city": "San Rafael", 
    "lat": "10.0417", 
    "lng": "-84.0750", 
    "country": "Costa Rica", 
    "iso2": "CR", 
    "admin_name": "Heredia", 
    "capital": "", 
    "population": "45965", 
    "population_proper": "45965"
  }, 
  {
    "city": "San Isidro", 
    "lat": "9.3403", 
    "lng": "-83.7338", 
    "country": "Costa Rica", 
    "iso2": "CR", 
    "admin_name": "San José", 
    "capital": "", 
    "population": "45327", 
    "population_proper": "45327"
  }, 
  {
    "city": "Naranjo", 
    "lat": "10.1053", 
    "lng": "-84.3885", 
    "country": "Costa Rica", 
    "iso2": "CR", 
    "admin_name": "Alajuela", 
    "capital": "", 
    "population": "42713", 
    "population_proper": "42713"
  }, 
  {
    "city": "Quesada", 
    "lat": "10.3441", 
    "lng": "-84.4199", 
    "country": "Costa Rica", 
    "iso2": "CR", 
    "admin_name": "Alajuela", 
    "capital": "", 
    "population": "42060", 
    "population_proper": "42060"
  }, 
  {
    "city": "Palmares", 
    "lat": "10.0466", 
    "lng": "-84.4373", 
    "country": "Costa Rica", 
    "iso2": "CR", 
    "admin_name": "Alajuela", 
    "capital": "", 
    "population": "41805", 
    "population_proper": "41805"
  }, 
  {
    "city": "Puntarenas", 
    "lat": "9.9667", 
    "lng": "-84.8333", 
    "country": "Costa Rica", 
    "iso2": "CR", 
    "admin_name": "Puntarenas", 
    "capital": "admin", 
    "population": "41528", 
    "population_proper": "41528"
  }, 
  {
    "city": "Guácimo", 
    "lat": "10.2025", 
    "lng": "-83.6223", 
    "country": "Costa Rica", 
    "iso2": "CR", 
    "admin_name": "Limón", 
    "capital": "", 
    "population": "41266", 
    "population_proper": "41266"
  }, 
  {
    "city": "Santo Domingo", 
    "lat": "9.9880", 
    "lng": "-84.0686", 
    "country": "Costa Rica", 
    "iso2": "CR", 
    "admin_name": "Heredia", 
    "capital": "", 
    "population": "40072", 
    "population_proper": "40072"
  }, 
  {
    "city": "Coto Brus", 
    "lat": "8.8890", 
    "lng": "-82.9092", 
    "country": "Costa Rica", 
    "iso2": "CR", 
    "admin_name": "Puntarenas", 
    "capital": "", 
    "population": "38453", 
    "population_proper": "38453"
  }, 
  {
    "city": "Matina", 
    "lat": "10.0099", 
    "lng": "-83.3096", 
    "country": "Costa Rica", 
    "iso2": "CR", 
    "admin_name": "Limón", 
    "capital": "", 
    "population": "37721", 
    "population_proper": "37721"
  }, 
  {
    "city": "Guápiles", 
    "lat": "10.2070", 
    "lng": "-83.8581", 
    "country": "Costa Rica", 
    "iso2": "CR", 
    "admin_name": "Limón", 
    "capital": "", 
    "population": "36469", 
    "population_proper": "36469"
  }, 
  {
    "city": "Cariari", 
    "lat": "10.4349", 
    "lng": "-83.6851", 
    "country": "Costa Rica", 
    "iso2": "CR", 
    "admin_name": "Limón", 
    "capital": "", 
    "population": "34176", 
    "population_proper": "34176"
  }, 
  {
    "city": "Desamparados", 
    "lat": "9.8967", 
    "lng": "-84.0706", 
    "country": "Costa Rica", 
    "iso2": "CR", 
    "admin_name": "San José", 
    "capital": "", 
    "population": "33866", 
    "population_proper": "33866"
  }, 
  {
    "city": "La Uruca", 
    "lat": "9.9575", 
    "lng": "-84.1327", 
    "country": "Costa Rica", 
    "iso2": "CR", 
    "admin_name": "San José", 
    "capital": "", 
    "population": "31728", 
    "population_proper": "31728"
  }, 
  {
    "city": "Siquirres", 
    "lat": "10.0901", 
    "lng": "-83.5016", 
    "country": "Costa Rica", 
    "iso2": "CR", 
    "admin_name": "Limón", 
    "capital": "", 
    "population": "31637", 
    "population_proper": "31637"
  }, 
  {
    "city": "San Vicente", 
    "lat": "9.9636", 
    "lng": "-84.0454", 
    "country": "Costa Rica", 
    "iso2": "CR", 
    "admin_name": "San José", 
    "capital": "", 
    "population": "30998", 
    "population_proper": "30998"
  }, 
  {
    "city": "Buenos Aires", 
    "lat": "9.1985", 
    "lng": "-83.2816", 
    "country": "Costa Rica", 
    "iso2": "CR", 
    "admin_name": "Puntarenas", 
    "capital": "", 
    "population": "29454", 
    "population_proper": "29454"
  }, 
  {
    "city": "Poás", 
    "lat": "10.1060", 
    "lng": "-84.2475", 
    "country": "Costa Rica", 
    "iso2": "CR", 
    "admin_name": "Alajuela", 
    "capital": "", 
    "population": "29199", 
    "population_proper": "29199"
  }, 
  {
    "city": "Curridabat", 
    "lat": "9.9160", 
    "lng": "-84.0348", 
    "country": "Costa Rica", 
    "iso2": "CR", 
    "admin_name": "San José", 
    "capital": "", 
    "population": "28817", 
    "population_proper": "28817"
  }, 
  {
    "city": "Esparza", 
    "lat": "9.9959", 
    "lng": "-84.6467", 
    "country": "Costa Rica", 
    "iso2": "CR", 
    "admin_name": "Puntarenas", 
    "capital": "", 
    "population": "28644", 
    "population_proper": "28644"
  }, 
  {
    "city": "San Pablo", 
    "lat": "9.9918", 
    "lng": "-84.0937", 
    "country": "Costa Rica", 
    "iso2": "CR", 
    "admin_name": "Heredia", 
    "capital": "", 
    "population": "27671", 
    "population_proper": "27671"
  }, 
  {
    "city": "Purral", 
    "lat": "9.9594", 
    "lng": "-84.0165", 
    "country": "Costa Rica", 
    "iso2": "CR", 
    "admin_name": "San José", 
    "capital": "", 
    "population": "27464", 
    "population_proper": "27464"
  }, 
  {
    "city": "Turrialba", 
    "lat": "9.8897", 
    "lng": "-83.6807", 
    "country": "Costa Rica", 
    "iso2": "CR", 
    "admin_name": "Cartago", 
    "capital": "", 
    "population": "26680", 
    "population_proper": "26680"
  }, 
  {
    "city": "Cañas", 
    "lat": "10.4457", 
    "lng": "-85.0992", 
    "country": "Costa Rica", 
    "iso2": "CR", 
    "admin_name": "Guanacaste", 
    "capital": "", 
    "population": "26201", 
    "population_proper": "26201"
  }, 
  {
    "city": "Desamparados", 
    "lat": "10.0315", 
    "lng": "-84.1877", 
    "country": "Costa Rica", 
    "iso2": "CR", 
    "admin_name": "Alajuela", 
    "capital": "", 
    "population": "26109", 
    "population_proper": "26109"
  }, 
  {
    "city": "San Juan", 
    "lat": "9.9609", 
    "lng": "-84.0731", 
    "country": "Costa Rica", 
    "iso2": "CR", 
    "admin_name": "San José", 
    "capital": "", 
    "population": "25866", 
    "population_proper": "25866"
  }, 
  {
    "city": "Horquetas", 
    "lat": "10.3195", 
    "lng": "-83.9647", 
    "country": "Costa Rica", 
    "iso2": "CR", 
    "admin_name": "Heredia", 
    "capital": "", 
    "population": "24331", 
    "population_proper": "24331"
  }, 
  {
    "city": "Rita", 
    "lat": "10.4337", 
    "lng": "-83.7530", 
    "country": "Costa Rica", 
    "iso2": "CR", 
    "admin_name": "Limón", 
    "capital": "", 
    "population": "24041", 
    "population_proper": "24041"
  }, 
  {
    "city": "San Pedro", 
    "lat": "9.9332", 
    "lng": "-84.0470", 
    "country": "Costa Rica", 
    "iso2": "CR", 
    "admin_name": "San José", 
    "capital": "", 
    "population": "23977", 
    "population_proper": "23977"
  }, 
  {
    "city": "San Rafael Abajo", 
    "lat": "9.8943", 
    "lng": "-84.0837", 
    "country": "Costa Rica", 
    "iso2": "CR", 
    "admin_name": "San José", 
    "capital": "", 
    "population": "23283", 
    "population_proper": "23283"
  }, 
  {
    "city": "Cartago", 
    "lat": "9.8667", 
    "lng": "-83.9167", 
    "country": "Costa Rica", 
    "iso2": "CR", 
    "admin_name": "Cartago", 
    "capital": "admin", 
    "population": "22775", 
    "population_proper": "22775"
  }, 
  {
    "city": "Guadalupe", 
    "lat": "9.9494", 
    "lng": "-84.0512", 
    "country": "Costa Rica", 
    "iso2": "CR", 
    "admin_name": "San José", 
    "capital": "", 
    "population": "20663", 
    "population_proper": "20663"
  }, 
  {
    "city": "San Isidro", 
    "lat": "10.0299", 
    "lng": "-84.0431", 
    "country": "Costa Rica", 
    "iso2": "CR", 
    "admin_name": "Heredia", 
    "capital": "", 
    "population": "20633", 
    "population_proper": "20633"
  }, 
  {
    "city": "Paraíso", 
    "lat": "9.8432", 
    "lng": "-83.8463", 
    "country": "Costa Rica", 
    "iso2": "CR", 
    "admin_name": "Cartago", 
    "capital": "", 
    "population": "20601", 
    "population_proper": "20601"
  }, 
  {
    "city": "Sartalillo", 
    "lat": "9.9759", 
    "lng": "-84.0232", 
    "country": "Costa Rica", 
    "iso2": "CR", 
    "admin_name": "Cartago", 
    "capital": "", 
    "population": "20349", 
    "population_proper": "20349"
  }, 
  {
    "city": "Aguas Zarcas", 
    "lat": "10.4223", 
    "lng": "-84.3554", 
    "country": "Costa Rica", 
    "iso2": "CR", 
    "admin_name": "Alajuela", 
    "capital": "", 
    "population": "20239", 
    "population_proper": "20239"
  }, 
  {
    "city": "San Francisco", 
    "lat": "9.9083", 
    "lng": "-84.0582", 
    "country": "Costa Rica", 
    "iso2": "CR", 
    "admin_name": "San José", 
    "capital": "", 
    "population": "20209", 
    "population_proper": "20209"
  }, 
  {
    "city": "Puerto Viejo", 
    "lat": "10.5737", 
    "lng": "-83.9548", 
    "country": "Costa Rica", 
    "iso2": "CR", 
    "admin_name": "Heredia", 
    "capital": "", 
    "population": "20184", 
    "population_proper": "20184"
  }, 
  {
    "city": "Guácima", 
    "lat": "9.9613", 
    "lng": "-84.2588", 
    "country": "Costa Rica", 
    "iso2": "CR", 
    "admin_name": "Alajuela", 
    "capital": "", 
    "population": "20183", 
    "population_proper": "20183"
  }, 
  {
    "city": "Quepos", 
    "lat": "9.4571", 
    "lng": "-84.1387", 
    "country": "Costa Rica", 
    "iso2": "CR", 
    "admin_name": "Puntarenas", 
    "capital": "", 
    "population": "19858", 
    "population_proper": "19858"
  }, 
  {
    "city": "Bagaces", 
    "lat": "10.5157", 
    "lng": "-85.2478", 
    "country": "Costa Rica", 
    "iso2": "CR", 
    "admin_name": "Guanacaste", 
    "capital": "", 
    "population": "19536", 
    "population_proper": "19536"
  }, 
  {
    "city": "San Juan de Dios", 
    "lat": "9.8800", 
    "lng": "-84.0914", 
    "country": "Costa Rica", 
    "iso2": "CR", 
    "admin_name": "San José", 
    "capital": "", 
    "population": "19481", 
    "population_proper": "19481"
  }, 
  {
    "city": "Heredia", 
    "lat": "9.9985", 
    "lng": "-84.1169", 
    "country": "Costa Rica", 
    "iso2": "CR", 
    "admin_name": "Heredia", 
    "capital": "admin", 
    "population": "18988", 
    "population_proper": "18988"
  }, 
  {
    "city": "Zapote", 
    "lat": "9.9203", 
    "lng": "-84.0592", 
    "country": "Costa Rica", 
    "iso2": "CR", 
    "admin_name": "San José", 
    "capital": "", 
    "population": "18679", 
    "population_proper": "18679"
  }, 
  {
    "city": "Abangaritos", 
    "lat": "10.2492", 
    "lng": "-85.0268", 
    "country": "Costa Rica", 
    "iso2": "CR", 
    "admin_name": "Puntarenas", 
    "capital": "", 
    "population": "18039", 
    "population_proper": "18039"
  }, 
  {
    "city": "Colón", 
    "lat": "9.9096", 
    "lng": "-84.2620", 
    "country": "Costa Rica", 
    "iso2": "CR", 
    "admin_name": "San José", 
    "capital": "", 
    "population": "17411", 
    "population_proper": "17411"
  }, 
  {
    "city": "Pital", 
    "lat": "10.6024", 
    "lng": "-84.2474", 
    "country": "Costa Rica", 
    "iso2": "CR", 
    "admin_name": "Alajuela", 
    "capital": "", 
    "population": "17318", 
    "population_proper": "17318"
  }, 
  {
    "city": "Roxana", 
    "lat": "10.3586", 
    "lng": "-83.6738", 
    "country": "Costa Rica", 
    "iso2": "CR", 
    "admin_name": "Limón", 
    "capital": "", 
    "population": "16790", 
    "population_proper": "16790"
  }, 
  {
    "city": "San Isidro", 
    "lat": "9.9737", 
    "lng": "-83.9861", 
    "country": "Costa Rica", 
    "iso2": "CR", 
    "admin_name": "San José", 
    "capital": "", 
    "population": "16625", 
    "population_proper": "16625"
  }, 
  {
    "city": "Batán", 
    "lat": "10.1041", 
    "lng": "-83.3529", 
    "country": "Costa Rica", 
    "iso2": "CR", 
    "admin_name": "Limón", 
    "capital": "", 
    "population": "16532", 
    "population_proper": "16532"
  }, 
  {
    "city": "Upala", 
    "lat": "10.8645", 
    "lng": "-84.9942", 
    "country": "Costa Rica", 
    "iso2": "CR", 
    "admin_name": "Alajuela", 
    "capital": "", 
    "population": "16139", 
    "population_proper": "16139"
  }, 
  {
    "city": "Parrita", 
    "lat": "9.5471", 
    "lng": "-84.3464", 
    "country": "Costa Rica", 
    "iso2": "CR", 
    "admin_name": "Puntarenas", 
    "capital": "", 
    "population": "16115", 
    "population_proper": "16115"
  }, 
  {
    "city": "Pozos", 
    "lat": "9.9536", 
    "lng": "-84.1926", 
    "country": "Costa Rica", 
    "iso2": "CR", 
    "admin_name": "San José", 
    "capital": "", 
    "population": "15585", 
    "population_proper": "15585"
  }, 
  {
    "city": "Fortuna", 
    "lat": "10.4483", 
    "lng": "-84.6421", 
    "country": "Costa Rica", 
    "iso2": "CR", 
    "admin_name": "Alajuela", 
    "capital": "", 
    "population": "15383", 
    "population_proper": "15383"
  }, 
  {
    "city": "San Rafael Arriba", 
    "lat": "9.8778", 
    "lng": "-84.0708", 
    "country": "Costa Rica", 
    "iso2": "CR", 
    "admin_name": "San José", 
    "capital": "", 
    "population": "15262", 
    "population_proper": "15262"
  }, 
  {
    "city": "Florencia", 
    "lat": "10.3665", 
    "lng": "-84.4814", 
    "country": "Costa Rica", 
    "iso2": "CR", 
    "admin_name": "Alajuela", 
    "capital": "", 
    "population": "15149", 
    "population_proper": "15149"
  }, 
  {
    "city": "Sardinal", 
    "lat": "10.5343", 
    "lng": "-85.6955", 
    "country": "Costa Rica", 
    "iso2": "CR", 
    "admin_name": "Guanacaste", 
    "capital": "", 
    "population": "14912", 
    "population_proper": "14912"
  }, 
  {
    "city": "Grecia", 
    "lat": "10.0693", 
    "lng": "-84.3136", 
    "country": "Costa Rica", 
    "iso2": "CR", 
    "admin_name": "Alajuela", 
    "capital": "", 
    "population": "14859", 
    "population_proper": "14859"
  }, 
  {
    "city": "San Vito", 
    "lat": "8.8400", 
    "lng": "-82.9784", 
    "country": "Costa Rica", 
    "iso2": "CR", 
    "admin_name": "Puntarenas", 
    "capital": "", 
    "population": "14834", 
    "population_proper": "14834"
  }, 
  {
    "city": "Copalchí", 
    "lat": "9.8473", 
    "lng": "-84.0834", 
    "country": "Costa Rica", 
    "iso2": "CR", 
    "admin_name": "Cartago", 
    "capital": "", 
    "population": "13676", 
    "population_proper": "13676"
  }, 
  {
    "city": "Los Chiles", 
    "lat": "10.9639", 
    "lng": "-84.5990", 
    "country": "Costa Rica", 
    "iso2": "CR", 
    "admin_name": "Alajuela", 
    "capital": "", 
    "population": "13262", 
    "population_proper": "13262"
  }, 
  {
    "city": "Santa Ana", 
    "lat": "9.9320", 
    "lng": "-84.1760", 
    "country": "Costa Rica", 
    "iso2": "CR", 
    "admin_name": "San José", 
    "capital": "", 
    "population": "12956", 
    "population_proper": "12956"
  }, 
  {
    "city": "Matinilla", 
    "lat": "9.9246", 
    "lng": "-84.0713", 
    "country": "Costa Rica", 
    "iso2": "CR", 
    "admin_name": "San José", 
    "capital": "", 
    "population": "12936", 
    "population_proper": "12936"
  }, 
  {
    "city": "Puerto Jiménez", 
    "lat": "8.5338", 
    "lng": "-83.4610", 
    "country": "Costa Rica", 
    "iso2": "CR", 
    "admin_name": "Puntarenas", 
    "capital": "", 
    "population": "12836", 
    "population_proper": "12836"
  }, 
  {
    "city": "Santiago", 
    "lat": "9.8291", 
    "lng": "-84.3044", 
    "country": "Costa Rica", 
    "iso2": "CR", 
    "admin_name": "San José", 
    "capital": "", 
    "population": "12600", 
    "population_proper": "12600"
  }, 
  {
    "city": "Alajuelita", 
    "lat": "9.9035", 
    "lng": "-84.0996", 
    "country": "Costa Rica", 
    "iso2": "CR", 
    "admin_name": "San José", 
    "capital": "", 
    "population": "11988", 
    "population_proper": "11988"
  }, 
  {
    "city": "Escazú", 
    "lat": "9.9160", 
    "lng": "-84.1459", 
    "country": "Costa Rica", 
    "iso2": "CR", 
    "admin_name": "San José", 
    "capital": "", 
    "population": "11984", 
    "population_proper": "11984"
  }, 
  {
    "city": "Patarrá", 
    "lat": "9.8637", 
    "lng": "-84.0248", 
    "country": "Costa Rica", 
    "iso2": "CR", 
    "admin_name": "San José", 
    "capital": "", 
    "population": "11921", 
    "population_proper": "11921"
  }, 
  {
    "city": "Sixaola", 
    "lat": "9.5579", 
    "lng": "-82.6698", 
    "country": "Costa Rica", 
    "iso2": "CR", 
    "admin_name": "Limón", 
    "capital": "", 
    "population": "11847", 
    "population_proper": "11847"
  }, 
  {
    "city": "Jacó", 
    "lat": "9.6200", 
    "lng": "-84.6044", 
    "country": "Costa Rica", 
    "iso2": "CR", 
    "admin_name": "Puntarenas", 
    "capital": "", 
    "population": "11685", 
    "population_proper": "11685"
  }, 
  {
    "city": "San Josecito", 
    "lat": "10.0126", 
    "lng": "-84.1119", 
    "country": "Costa Rica", 
    "iso2": "CR", 
    "admin_name": "Heredia", 
    "capital": "", 
    "population": "11579", 
    "population_proper": "11579"
  }, 
  {
    "city": "Golfito", 
    "lat": "8.6526", 
    "lng": "-83.1733", 
    "country": "Costa Rica", 
    "iso2": "CR", 
    "admin_name": "Puntarenas", 
    "capital": "", 
    "population": "11284", 
    "population_proper": "11284"
  }, 
  {
    "city": "Nandayure", 
    "lat": "9.9014", 
    "lng": "-85.3036", 
    "country": "Costa Rica", 
    "iso2": "CR", 
    "admin_name": "Guanacaste", 
    "capital": "", 
    "population": "11121", 
    "population_proper": "11121"
  }, 
  {
    "city": "Río Cuarto", 
    "lat": "10.4076", 
    "lng": "-84.2135", 
    "country": "Costa Rica", 
    "iso2": "CR", 
    "admin_name": "Alajuela", 
    "capital": "", 
    "population": "11074", 
    "population_proper": "11074"
  }, 
  {
    "city": "Sabalito", 
    "lat": "8.8828", 
    "lng": "-82.8314", 
    "country": "Costa Rica", 
    "iso2": "CR", 
    "admin_name": "Puntarenas", 
    "capital": "", 
    "population": "10984", 
    "population_proper": "10984"
  }, 
  {
    "city": "Río Segundo", 
    "lat": "10.0013", 
    "lng": "-84.1937", 
    "country": "Costa Rica", 
    "iso2": "CR", 
    "admin_name": "Alajuela", 
    "capital": "", 
    "population": "10794", 
    "population_proper": "10794"
  }, 
  {
    "city": "Puente de Piedra", 
    "lat": "10.0298", 
    "lng": "-84.3332", 
    "country": "Costa Rica", 
    "iso2": "CR", 
    "admin_name": "Alajuela", 
    "capital": "", 
    "population": "10556", 
    "population_proper": "10556"
  }, 
  {
    "city": "La Virgen", 
    "lat": "10.4312", 
    "lng": "-84.0772", 
    "country": "Costa Rica", 
    "iso2": "CR", 
    "admin_name": "Heredia", 
    "capital": "", 
    "population": "10521", 
    "population_proper": "10521"
  }, 
  {
    "city": "San Josecito", 
    "lat": "9.8885", 
    "lng": "-84.1055", 
    "country": "Costa Rica", 
    "iso2": "CR", 
    "admin_name": "San José", 
    "capital": "", 
    "population": "10506", 
    "population_proper": "10506"
  }, 
  {
    "city": "Jiménez", 
    "lat": "10.1797", 
    "lng": "-83.7382", 
    "country": "Costa Rica", 
    "iso2": "CR", 
    "admin_name": "Limón", 
    "capital": "", 
    "population": "10501", 
    "population_proper": "10501"
  }, 
  {
    "city": "San Marcos", 
    "lat": "9.6703", 
    "lng": "-84.0092", 
    "country": "Costa Rica", 
    "iso2": "CR", 
    "admin_name": "San José", 
    "capital": "", 
    "population": "9993", 
    "population_proper": "9993"
  }, 
  {
    "city": "San Antonio", 
    "lat": "9.9781", 
    "lng": "-84.1879", 
    "country": "Costa Rica", 
    "iso2": "CR", 
    "admin_name": "Alajuela", 
    "capital": "", 
    "population": "9942", 
    "population_proper": "9942"
  }, 
  {
    "city": "Dulce Nombre de Jesús", 
    "lat": "10.0838", 
    "lng": "-83.9810", 
    "country": "Costa Rica", 
    "iso2": "CR", 
    "admin_name": "San José", 
    "capital": "", 
    "population": "9744", 
    "population_proper": "9744"
  }, 
  {
    "city": "Orotina", 
    "lat": "9.9024", 
    "lng": "-84.5250", 
    "country": "Costa Rica", 
    "iso2": "CR", 
    "admin_name": "Alajuela", 
    "capital": "", 
    "population": "9664", 
    "population_proper": "9664"
  }, 
  {
    "city": "Canoas", 
    "lat": "8.5333", 
    "lng": "-82.8333", 
    "country": "Costa Rica", 
    "iso2": "CR", 
    "admin_name": "Puntarenas", 
    "capital": "", 
    "population": "9543", 
    "population_proper": "9543"
  }, 
  {
    "city": "Tres Ríos", 
    "lat": "9.9072", 
    "lng": "-83.9865", 
    "country": "Costa Rica", 
    "iso2": "CR", 
    "admin_name": "Cartago", 
    "capital": "", 
    "population": "9331", 
    "population_proper": "9331"
  }, 
  {
    "city": "Carrillos", 
    "lat": "10.0369", 
    "lng": "-84.2740", 
    "country": "Costa Rica", 
    "iso2": "CR", 
    "admin_name": "Alajuela", 
    "capital": "", 
    "population": "9228", 
    "population_proper": "9228"
  }, 
  {
    "city": "San Ignacio", 
    "lat": "9.7997", 
    "lng": "-84.1630", 
    "country": "Costa Rica", 
    "iso2": "CR", 
    "admin_name": "San José", 
    "capital": "", 
    "population": "9016", 
    "population_proper": "9016"
  }, 
  {
    "city": "Piedades Norte", 
    "lat": "10.1396", 
    "lng": "-84.5365", 
    "country": "Costa Rica", 
    "iso2": "CR", 
    "admin_name": "Alajuela", 
    "capital": "", 
    "population": "8147", 
    "population_proper": "8147"
  }, 
  {
    "city": "Piedades", 
    "lat": "9.9160", 
    "lng": "-84.2086", 
    "country": "Costa Rica", 
    "iso2": "CR", 
    "admin_name": "San José", 
    "capital": "", 
    "population": "8128", 
    "population_proper": "8128"
  }, 
  {
    "city": "Tacares", 
    "lat": "10.0315", 
    "lng": "-84.3118", 
    "country": "Costa Rica", 
    "iso2": "CR", 
    "admin_name": "Alajuela", 
    "capital": "", 
    "population": "7963", 
    "population_proper": "7963"
  }, 
  {
    "city": "Dulce Nombre", 
    "lat": "9.9326", 
    "lng": "-83.9694", 
    "country": "Costa Rica", 
    "iso2": "CR", 
    "admin_name": "Cartago", 
    "capital": "", 
    "population": "7893", 
    "population_proper": "7893"
  }, 
  {
    "city": "Turrúcares", 
    "lat": "9.9421", 
    "lng": "-84.3230", 
    "country": "Costa Rica", 
    "iso2": "CR", 
    "admin_name": "Alajuela", 
    "capital": "", 
    "population": "7630", 
    "population_proper": "7630"
  }, 
  {
    "city": "San Pedro", 
    "lat": "10.0821", 
    "lng": "-84.2484", 
    "country": "Costa Rica", 
    "iso2": "CR", 
    "admin_name": "Alajuela", 
    "capital": "", 
    "population": "7554", 
    "population_proper": "7554"
  }, 
  {
    "city": "Atenas", 
    "lat": "9.9786", 
    "lng": "-84.3685", 
    "country": "Costa Rica", 
    "iso2": "CR", 
    "admin_name": "Alajuela", 
    "capital": "", 
    "population": "7546", 
    "population_proper": "7546"
  }, 
  {
    "city": "Buenos Aires", 
    "lat": "10.0705", 
    "lng": "-84.4318", 
    "country": "Costa Rica", 
    "iso2": "CR", 
    "admin_name": "Alajuela", 
    "capital": "", 
    "population": "7493", 
    "population_proper": "7493"
  }, 
  {
    "city": "Santa Lucía", 
    "lat": "10.0264", 
    "lng": "-84.1135", 
    "country": "Costa Rica", 
    "iso2": "CR", 
    "admin_name": "Heredia", 
    "capital": "", 
    "population": "7413", 
    "population_proper": "7413"
  }, 
  {
    "city": "Bribri", 
    "lat": "9.6255", 
    "lng": "-82.8305", 
    "country": "Costa Rica", 
    "iso2": "CR", 
    "admin_name": "Limón", 
    "capital": "", 
    "population": "7318", 
    "population_proper": "7318"
  }, 
  {
    "city": "Sarchí", 
    "lat": "10.1258", 
    "lng": "-84.3209", 
    "country": "Costa Rica", 
    "iso2": "CR", 
    "admin_name": "Alajuela", 
    "capital": "", 
    "population": "7140", 
    "population_proper": "7140"
  }, 
  {
    "city": "San Rafael", 
    "lat": "9.9780", 
    "lng": "-83.9542", 
    "country": "Costa Rica", 
    "iso2": "CR", 
    "admin_name": "San José", 
    "capital": "", 
    "population": "7040", 
    "population_proper": "7040"
  }, 
  {
    "city": "Tobosí", 
    "lat": "9.8172", 
    "lng": "-83.9928", 
    "country": "Costa Rica", 
    "iso2": "CR", 
    "admin_name": "Cartago", 
    "capital": "", 
    "population": "6569", 
    "population_proper": "6569"
  }, 
  {
    "city": "Juan Viñas", 
    "lat": "9.9022", 
    "lng": "-83.7423", 
    "country": "Costa Rica", 
    "iso2": "CR", 
    "admin_name": "Cartago", 
    "capital": "", 
    "population": "6552", 
    "population_proper": "6552"
  }, 
  {
    "city": "Vuelta de Jorco", 
    "lat": "9.7716", 
    "lng": "-84.1380", 
    "country": "Costa Rica", 
    "iso2": "CR", 
    "admin_name": "San José", 
    "capital": "", 
    "population": "6499", 
    "population_proper": "6499"
  }, 
  {
    "city": "General Viejo", 
    "lat": "9.3527", 
    "lng": "-83.6042", 
    "country": "Costa Rica", 
    "iso2": "CR", 
    "admin_name": "San José", 
    "capital": "", 
    "population": "6373", 
    "population_proper": "6373"
  }, 
  {
    "city": "San Juan Grande", 
    "lat": "9.9704", 
    "lng": "-84.6534", 
    "country": "Costa Rica", 
    "iso2": "CR", 
    "admin_name": "Puntarenas", 
    "capital": "", 
    "population": "6171", 
    "population_proper": "6171"
  }, 
  {
    "city": "San Jerónimo", 
    "lat": "10.0274", 
    "lng": "-84.0027", 
    "country": "Costa Rica", 
    "iso2": "CR", 
    "admin_name": "San José", 
    "capital": "", 
    "population": "6154", 
    "population_proper": "6154"
  }, 
  {
    "city": "Aquiares", 
    "lat": "9.9280", 
    "lng": "-83.6600", 
    "country": "Costa Rica", 
    "iso2": "CR", 
    "admin_name": "Cartago", 
    "capital": "", 
    "population": "6116", 
    "population_proper": "6116"
  }, 
  {
    "city": "San Gabriel", 
    "lat": "9.7876", 
    "lng": "-84.1111", 
    "country": "Costa Rica", 
    "iso2": "CR", 
    "admin_name": "San José", 
    "capital": "", 
    "population": "6061", 
    "population_proper": "6061"
  }, 
  {
    "city": "Cinco Esquinas", 
    "lat": "9.9467", 
    "lng": "-84.0831", 
    "country": "Costa Rica", 
    "iso2": "CR", 
    "admin_name": "Heredia", 
    "capital": "", 
    "population": "5925", 
    "population_proper": "5925"
  }, 
  {
    "city": "Coyolar", 
    "lat": "9.8741", 
    "lng": "-84.5769", 
    "country": "Costa Rica", 
    "iso2": "CR", 
    "admin_name": "Alajuela", 
    "capital": "", 
    "population": "5912", 
    "population_proper": "5912"
  }, 
  {
    "city": "Pacayas", 
    "lat": "9.9377", 
    "lng": "-83.8175", 
    "country": "Costa Rica", 
    "iso2": "CR", 
    "admin_name": "Cartago", 
    "capital": "", 
    "population": "5628", 
    "population_proper": "5628"
  }, 
  {
    "city": "San José de la Montaña", 
    "lat": "10.0894", 
    "lng": "-84.1082", 
    "country": "Costa Rica", 
    "iso2": "CR", 
    "admin_name": "Heredia", 
    "capital": "", 
    "population": "5377", 
    "population_proper": "5377"
  }, 
  {
    "city": "Quebradillas", 
    "lat": "9.8500", 
    "lng": "-84.0019", 
    "country": "Costa Rica", 
    "iso2": "CR", 
    "admin_name": "Cartago", 
    "capital": "", 
    "population": "5349", 
    "population_proper": "5349"
  }, 
  {
    "city": "Sarchí Sur", 
    "lat": "10.0745", 
    "lng": "-84.3442", 
    "country": "Costa Rica", 
    "iso2": "CR", 
    "admin_name": "Alajuela", 
    "capital": "", 
    "population": "5143", 
    "population_proper": "5143"
  }, 
  {
    "city": "Tierra Blanca", 
    "lat": "9.9307", 
    "lng": "-83.8894", 
    "country": "Costa Rica", 
    "iso2": "CR", 
    "admin_name": "Cartago", 
    "capital": "", 
    "population": "5103", 
    "population_proper": "5103"
  }, 
  {
    "city": "Barva", 
    "lat": "10.0204", 
    "lng": "-84.1234", 
    "country": "Costa Rica", 
    "iso2": "CR", 
    "admin_name": "Heredia", 
    "capital": "", 
    "population": "4997", 
    "population_proper": "4997"
  }, 
  {
    "city": "Tucurrique", 
    "lat": "9.8465", 
    "lng": "-83.7313", 
    "country": "Costa Rica", 
    "iso2": "CR", 
    "admin_name": "Cartago", 
    "capital": "", 
    "population": "4872", 
    "population_proper": "4872"
  }, 
  {
    "city": "Macacona", 
    "lat": "10.0158", 
    "lng": "-84.6162", 
    "country": "Costa Rica", 
    "iso2": "CR", 
    "admin_name": "Puntarenas", 
    "capital": "", 
    "population": "4742", 
    "population_proper": "4742"
  }, 
  {
    "city": "San Pablo", 
    "lat": "9.6837", 
    "lng": "-84.0451", 
    "country": "Costa Rica", 
    "iso2": "CR", 
    "admin_name": "San José", 
    "capital": "", 
    "population": "4663", 
    "population_proper": "4663"
  }, 
  {
    "city": "San Miguel Oeste", 
    "lat": "10.0637", 
    "lng": "-84.3914", 
    "country": "Costa Rica", 
    "iso2": "CR", 
    "admin_name": "Alajuela", 
    "capital": "", 
    "population": "4657", 
    "population_proper": "4657"
  }, 
  {
    "city": "Cirrí", 
    "lat": "10.1437", 
    "lng": "-84.3637", 
    "country": "Costa Rica", 
    "iso2": "CR", 
    "admin_name": "Alajuela", 
    "capital": "", 
    "population": "4552", 
    "population_proper": "4552"
  }, 
  {
    "city": "Zarcero", 
    "lat": "10.1890", 
    "lng": "-84.3751", 
    "country": "Costa Rica", 
    "iso2": "CR", 
    "admin_name": "Alajuela", 
    "capital": "", 
    "population": "4397", 
    "population_proper": "4397"
  }, 
  {
    "city": "Llano Grande", 
    "lat": "9.9337", 
    "lng": "-83.9194", 
    "country": "Costa Rica", 
    "iso2": "CR", 
    "admin_name": "Cartago", 
    "capital": "", 
    "population": "4342", 
    "population_proper": "4342"
  }, 
  {
    "city": "Salitral", 
    "lat": "9.8946", 
    "lng": "-84.1704", 
    "country": "Costa Rica", 
    "iso2": "CR", 
    "admin_name": "San José", 
    "capital": "", 
    "population": "4304", 
    "population_proper": "4304"
  }, 
  {
    "city": "San Cristóbal Sur", 
    "lat": "9.7491", 
    "lng": "-83.9914", 
    "country": "Costa Rica", 
    "iso2": "CR", 
    "admin_name": "San José", 
    "capital": "", 
    "population": "3905", 
    "population_proper": "3905"
  }, 
  {
    "city": "San Antonio", 
    "lat": "9.8615", 
    "lng": "-84.2991", 
    "country": "Costa Rica", 
    "iso2": "CR", 
    "admin_name": "San José", 
    "capital": "", 
    "population": "3889", 
    "population_proper": "3889"
  }, 
  {
    "city": "Frailes", 
    "lat": "9.7547", 
    "lng": "-84.0691", 
    "country": "Costa Rica", 
    "iso2": "CR", 
    "admin_name": "San José", 
    "capital": "", 
    "population": "3772", 
    "population_proper": "3772"
  }, 
  {
    "city": "Cipreses", 
    "lat": "9.8938", 
    "lng": "-83.8420", 
    "country": "Costa Rica", 
    "iso2": "CR", 
    "admin_name": "Cartago", 
    "capital": "", 
    "population": "3700", 
    "population_proper": "3700"
  }, 
  {
    "city": "San Jerónimo", 
    "lat": "10.1284", 
    "lng": "-84.3527", 
    "country": "Costa Rica", 
    "iso2": "CR", 
    "admin_name": "Alajuela", 
    "capital": "", 
    "population": "3264", 
    "population_proper": "3264"
  }, 
  {
    "city": "Mata de Plátano", 
    "lat": "9.9363", 
    "lng": "-84.0700", 
    "country": "Costa Rica", 
    "iso2": "CR", 
    "admin_name": "San José", 
    "capital": "", 
    "population": "2702", 
    "population_proper": "2702"
  }
]